City_ID,City,Lat,Lng,Max Temp,Humidity,Cloudiness,Wind Speed,Country,Date
0,saskylakh,71.9167,114.0833,5.26,56,97,5.19,RU,1686414307
1,catalina,32.5056,-110.9211,28.94,15,32,0.45,US,1686414307
2,kamenka,51.3223,42.7678,18.04,83,76,5.15,RU,1686414308
3,busselton,-33.65,115.3333,14.63,65,89,6.92,AU,1686414308
4,manta,-0.95,-80.7333,28.88,89,75,7.6,EC,1686414308
5,tutoia,-2.7619,-42.2744,30.34,61,7,5.07,BR,1686414308
6,huanren,41.2647,125.3667,12.82,99,100,0.4,CN,1686414308
7,ushuaia,-54.8,-68.3,4.81,75,20,9.26,AR,1686414063
8,vega de alatorre,20.0333,-96.6333,30.79,70,17,2.68,MX,1686414308
9,krumbach,48.2418,10.3632,24.75,79,39,4.03,DE,1686414308
10,dhidhdhoo,6.8833,73.1,28.95,79,87,7.54,MV,1686414309
11,qaanaaq,77.484,-69.3632,-2.5,63,78,1.64,GL,1686414309
12,lamar,33.6668,-95.5836,22.58,94,40,8.23,US,1686414309
13,mataura,-46.1927,168.8643,1.87,86,49,1.66,NZ,1686414309
14,caravelas,-17.7125,-39.2481,27.05,62,59,3.67,BR,1686414309
15,hobyo,5.3505,48.5268,26.92,82,65,12.6,SO,1686414309
16,bethel,41.3712,-73.414,22.9,55,20,3.09,US,1686414309
17,progreso,21.2833,-89.6667,32.28,56,5,2.58,MX,1686414310
18,kieta,-6.2167,155.6333,25.85,83,36,1.11,PG,1686414310
19,faanui,-16.4833,-151.75,26.39,68,100,6.72,PF,1686414310
20,kapaa,22.0752,-159.319,24.18,90,75,5.14,US,1686414310
21,jamestown,42.097,-79.2353,23.34,45,0,5.14,US,1686414050
22,sekondi,4.937,-1.7128,26.13,81,94,5.83,GH,1686414310
23,severo-kurilsk,50.6789,156.125,7.04,68,77,4.59,RU,1686414311
24,rikitea,-23.1203,-134.9692,21.61,60,65,5.38,PF,1686414311
25,saint-francois,46.4154,3.9054,24.82,60,0,2.06,FR,1686414311
26,albany,42.6001,-73.9662,21.43,59,23,0.45,US,1686414312
27,hobart,-42.8794,147.3294,11.92,75,67,4.63,AU,1686414017
28,san carlos de bariloche,-41.1456,-71.3082,1.86,60,75,5.14,AR,1686414312
29,barrow,71.2906,-156.7887,-2.99,86,100,8.23,US,1686414312
30,guerrero negro,27.9769,-114.0611,18.29,65,82,6.39,MX,1686414312
31,hilo,19.7297,-155.09,25.71,85,75,2.06,US,1686414021
32,new norfolk,-42.7826,147.0587,11.72,84,68,2.68,AU,1686414313
33,codrington,-38.2667,141.9667,11.02,90,60,4.32,AU,1686414313
34,carnarvon,-24.8667,113.6333,19.7,69,0,4.2,AU,1686414312
35,puerto escondido,15.85,-97.0667,32.46,62,75,3.09,MX,1686414313
36,dikson,73.5069,80.5464,2.2,88,100,4.1,RU,1686414313
37,tuktoyaktuk,69.4541,-133.0374,-1.0,93,100,7.2,CA,1686414313
38,praya,14.9215,-23.5087,31.3,51,0,7.72,CV,1686414313
39,mehamn,71.0357,27.8492,9.97,62,100,4.12,NO,1686414313
40,sabha,27.0377,14.4283,38.56,14,0,3.97,LY,1686414314
41,fortuna,40.5982,-124.1573,12.74,94,100,0.89,US,1686414163
42,poronaysk,49.2167,143.1167,8.06,98,100,2.41,RU,1686414314
43,hirara,24.8,125.2833,26.15,94,40,1.03,JP,1686414314
44,necochea,-38.5473,-58.7368,11.52,53,6,8.83,AR,1686414314
45,charters towers,-20.1,146.2667,15.18,89,1,3.1,AU,1686414314
46,bathsheba,13.2167,-59.5167,31.34,70,40,7.2,BB,1686414314
47,saint-philippe,-21.3585,55.7679,24.77,83,58,5.5,RE,1686414314
48,buala,-8.145,159.5921,26.47,83,86,2.73,SB,1686414314
49,hammerfest,70.6634,23.6821,11.25,58,0,3.6,NO,1686414315
50,lagunas,-5.2269,-75.6753,27.3,81,78,1.19,PE,1686414315
51,georgetown,5.4112,100.3354,28.96,85,20,0.51,MY,1686414315
52,vila velha,-20.3297,-40.2925,29.97,60,40,2.06,BR,1686414315
53,sibolga,1.7427,98.7792,25.34,90,75,1.15,ID,1686414315
54,berbera,10.4396,45.0143,33.43,58,98,0.87,SO,1686414315
55,katsuura,35.1333,140.3,21.24,96,100,1.92,JP,1686414315
56,cherskiy,68.75,161.3,11.27,44,25,1.32,RU,1686414315
57,alyangula,-13.8483,136.4192,22.14,84,36,4.54,AU,1686414315
58,east london,-33.0153,27.9116,17.14,58,1,1.76,ZA,1686414316
59,agucadoura,41.4318,-8.7804,24.06,80,18,2.93,PT,1686414316
60,cape town,-33.9258,18.4232,15.62,76,20,4.12,ZA,1686414300
61,san luis,-33.295,-66.3356,11.67,29,8,11.34,AR,1686414155
62,gallup,35.5281,-108.7426,20.01,18,0,2.57,US,1686414316
63,chokurdakh,70.6333,147.9167,17.27,49,100,2.64,RU,1686414259
64,bluff,-46.6,168.3333,6.76,79,89,3.87,NZ,1686414316
65,bouna,9.2667,-3.0,31.3,48,97,1.89,CI,1686414316
66,alta floresta,-9.8756,-56.0861,34.9,43,40,3.6,BR,1686414317
67,luoyang,34.6836,112.4536,25.26,31,60,0.61,CN,1686414317
68,grindavik,63.8424,-22.4338,9.26,57,20,8.23,IS,1686414317
69,prince rupert,54.3161,-130.3201,11.05,92,100,8.75,CA,1686414317
70,bilibino,68.0546,166.4372,14.05,48,17,0.55,RU,1686414317
71,port alfred,-33.5906,26.891,13.99,78,1,2.81,ZA,1686414317
72,qui nhon,13.7667,109.2333,28.96,71,100,3.05,VN,1686414318
73,dire dawa,9.5931,41.8661,25.88,56,100,5.63,ET,1686414318
74,nouakchott,18.0858,-15.9785,31.96,52,8,9.8,MR,1686414129
75,souillac,-20.5167,57.5167,23.21,78,20,3.09,MU,1686414318
76,serta,39.8085,-8.0988,26.08,54,98,3.93,PT,1686414318
77,hithadhoo,-0.6,73.0833,28.98,72,46,3.36,MV,1686414318
78,raga,8.4596,25.678,25.27,72,100,1.49,SS,1686414318
79,upernavik,72.7868,-56.1549,-0.4,89,100,1.38,GL,1686414318
80,mittagong,-34.45,150.45,6.59,92,0,1.71,AU,1686414319
81,ostrovnoy,68.0531,39.5131,5.22,76,100,6.5,RU,1686414076
82,lagoa,39.05,-27.9833,17.84,70,32,7.3,PT,1686414319
83,kaitangata,-46.2817,169.8464,2.73,68,58,1.95,NZ,1686414319
84,kodiak,57.79,-152.4072,6.73,93,100,2.06,US,1686414319
85,tasiilaq,65.6145,-37.6368,4.09,82,100,3.76,GL,1686414319
86,rovenki,48.0833,39.3776,20.83,65,100,3.45,UA,1686414319
87,manoel urbano,-8.8389,-69.2597,31.93,53,25,1.47,BR,1686414319
88,atuona,-9.8,-139.0333,26.76,77,9,4.36,PF,1686414319
89,antalaha,-14.9003,50.2788,23.28,79,0,4.85,MG,1686414319
90,bambous virieux,-20.3428,57.7575,23.14,78,20,3.09,MU,1686414320
91,arraial do cabo,-22.9661,-42.0278,28.98,45,0,2.57,BR,1686414320
92,puerto maldonado,-12.6,-69.1833,31.22,58,75,2.57,PE,1686414320
93,marawi,7.9986,124.2928,21.46,89,100,2.26,PH,1686414320
94,gorontalo,0.5412,123.0595,24.34,94,23,1.05,ID,1686414320
95,narsaq,60.9167,-46.05,17.12,51,97,1.73,GL,1686414320
96,castro,-24.7911,-50.0119,22.32,50,0,4.54,BR,1686414320
97,udachnyy,66.4167,112.4,9.14,100,100,6.29,RU,1686414259
98,lafia,8.4833,8.5167,30.66,58,96,2.51,NG,1686414321
99,ponta do sol,32.6667,-17.1,25.95,78,4,3.33,PT,1686414321
100,xining,36.6167,101.7667,15.2,49,96,1.56,CN,1686414144
101,kudahuvadhoo,2.6708,72.8944,28.45,77,74,2.28,MV,1686414321
102,victoria,22.2855,114.1577,30.11,90,100,1.72,HK,1686414151
103,toora-khem,52.4675,96.11,18.13,55,53,0.82,RU,1686414321
104,geraldton,-28.7667,114.6,15.23,100,40,5.66,AU,1686414321
105,hasaki,35.7333,140.8333,21.23,94,100,3.15,JP,1686414322
106,khatanga,71.9667,102.5,4.17,60,100,5.05,RU,1686414259
107,rocha,-34.4833,-54.3333,16.15,44,67,4.62,UY,1686414105
108,punta arenas,-53.15,-70.9167,4.06,75,0,11.83,CL,1686414024
109,midland,31.9974,-102.0779,33.36,17,0,7.2,US,1686414311
110,grand-santi,4.25,-54.3833,32.57,50,8,2.0,GF,1686414322
111,chuy,-33.6971,-53.4616,15.36,60,69,2.92,UY,1686414045
112,port hedland,-20.3167,118.5667,19.03,52,0,2.57,AU,1686414322
113,villazon,-22.0866,-65.5942,17.34,7,4,1.57,BO,1686414322
114,dingle,10.9995,122.6711,25.6,89,100,3.08,PH,1686414323
115,bontang,0.1333,117.5,26.01,88,95,2.6,ID,1686414323
116,nikolskoye,59.7035,30.7861,14.95,34,1,3.12,RU,1686414323
117,yar-sale,66.8333,70.8333,12.41,50,100,7.53,RU,1686414323
118,kosa,59.9445,54.9977,6.81,63,88,4.25,RU,1686414323
119,provideniya,64.3833,-173.3,4.34,91,99,2.31,RU,1686414323
120,boa vista,2.8197,-60.6733,27.99,69,40,7.72,BR,1686414323
121,butaritari,3.0707,172.7902,27.86,77,97,4.7,KI,1686414323
122,sulangan,11.1373,123.7228,28.56,75,100,3.96,PH,1686414323
123,north myrtle beach,33.816,-78.68,30.72,48,0,3.6,US,1686414323
124,port elizabeth,-33.918,25.5701,15.05,85,0,2.57,ZA,1686414324
125,vardo,70.3705,31.1107,6.99,81,100,3.6,NO,1686414324
126,touros,-5.1989,-35.4608,29.63,62,27,6.71,BR,1686414324
127,san quintin,30.4833,-115.95,17.38,77,100,4.85,MX,1686414324
128,port-gentil,-0.7193,8.7815,24.77,83,87,5.85,GA,1686414324
129,axim,4.8699,-2.2405,26.1,82,94,5.83,GH,1686414324
130,morehead,37.2711,-87.1764,27.1,38,0,3.6,US,1686414132
131,airai,-8.9266,125.4092,13.7,87,22,1.76,TL,1686414324
132,nouadhibou,20.931,-17.0347,26.99,57,0,7.72,MR,1686414324
133,sao joao da barra,-21.6403,-41.0511,29.05,55,0,3.21,BR,1686414324
134,asind,25.7333,74.3333,34.71,28,0,5.09,IN,1686414324
135,kanniyakumari,8.0833,77.5667,28.38,75,100,8.35,IN,1686414325
136,guarapari,-20.6667,-40.4975,29.94,61,0,2.52,BR,1686414325
137,megion,61.0296,76.1136,15.01,46,37,4.44,RU,1686414325
138,nemuro,43.3236,145.575,9.57,96,99,1.05,JP,1686414325
139,atambua,-9.1061,124.8925,21.67,85,16,2.73,ID,1686414325
140,sioux lookout,50.1001,-91.917,13.04,62,40,3.09,CA,1686414325
141,vestmannaeyjar,63.4427,-20.2734,8.55,61,0,9.26,IS,1686414325
142,kharitonovo,61.4009,47.4978,7.64,69,98,3.99,RU,1686414326
143,zuwarah,32.9312,12.082,25.26,63,99,11.43,LY,1686414326
144,sitka,57.0531,-135.33,9.94,87,100,2.06,US,1686414326
145,paka,4.6374,103.4368,26.96,83,38,0.0,MY,1686414326
146,ouesso,1.6136,16.0517,27.76,69,100,1.31,CG,1686414326
147,moree,-29.4667,149.85,9.84,70,0,1.99,AU,1686414326
148,yellowknife,62.456,-114.3525,14.29,67,100,4.12,CA,1686414326
149,haines junction,60.7522,-137.5108,11.97,43,86,1.03,CA,1686414327
150,lavrentiya,65.5833,-171.0,2.48,97,100,0.35,RU,1686414327
151,neiafu,-18.65,-173.9833,22.38,94,40,2.06,TO,1686414327
152,maralal,1.0968,36.698,19.05,57,98,3.16,KE,1686414327
153,yulara,-25.2406,130.9889,15.26,72,99,1.85,AU,1686414327
154,mar del plata,-38.0023,-57.5575,13.94,50,20,7.2,AR,1686414159
155,mahebourg,-20.4081,57.7,23.16,78,20,3.09,MU,1686414328
156,omsukchan,62.5333,155.8,8.95,56,15,1.4,RU,1686414328
157,te anau,-45.4167,167.7167,6.36,92,100,1.35,NZ,1686414328
158,port keats,-14.25,129.55,22.6,58,39,2.76,AU,1686414328
159,causapscal,48.3542,-67.227,13.77,79,97,1.75,CA,1686414328
160,berdigestyakh,62.0989,126.6992,13.61,78,12,2.82,RU,1686414328
161,lorengau,-2.0226,147.2712,27.55,78,57,2.27,PG,1686414329
162,alofi,-19.0595,-169.9187,23.94,94,26,3.09,NU,1686414329
163,bredasdorp,-34.5322,20.0403,14.12,72,48,0.86,ZA,1686414329
164,hamilton,39.1834,-84.5333,28.21,35,0,3.09,US,1686414329
165,zarand,30.8127,56.564,28.08,25,8,6.27,IR,1686414329
166,puerto ayora,-0.7393,-90.3518,28.98,92,100,5.81,EC,1686414329
167,saint anthony,45.0205,-93.218,26.03,47,40,4.63,US,1686414329
168,les cayes,18.2,-73.75,29.55,73,88,6.0,HT,1686414329
169,berlevag,70.8578,29.0864,10.0,71,75,7.72,NO,1686414329
170,ancud,-41.8697,-73.8203,8.48,69,68,3.34,CL,1686414329
171,tuatapere,-46.1333,167.6833,7.61,87,98,2.34,NZ,1686414330
172,tevriz,57.509,72.4042,13.64,84,61,1.8,RU,1686414330
173,road town,18.4167,-64.6167,31.05,70,75,6.17,VG,1686414215
174,luderitz,-26.6481,15.1594,15.5,77,0,3.71,NA,1686414330
175,goderich,43.7501,-81.7165,18.18,59,99,3.09,CA,1686414266
176,mollendo,-17.0231,-72.0147,19.01,71,49,3.84,PE,1686414330
177,le vauclin,14.5452,-60.8388,31.03,66,75,8.75,MQ,1686414330
178,solnechnyy,50.7214,136.6319,13.15,85,4,2.04,RU,1686414330
179,russkaya polyana,49.417,31.9201,17.85,78,99,6.72,UA,1686414330
180,constitucion,-35.3333,-72.4167,12.41,51,1,6.05,CL,1686414330
181,moindou,-21.6924,165.677,18.94,73,1,2.19,NC,1686414331
182,luwuk,-0.9516,122.7875,25.4,88,54,1.71,ID,1686414331
183,oktyabrskiy,54.4815,53.471,16.09,86,69,2.9,RU,1686414331
184,ibb,13.9667,44.1833,22.56,55,93,1.58,YE,1686414331
185,kampene,-3.6,26.6667,24.57,76,90,0.79,CD,1686414331
186,toma,12.7667,-2.8833,38.23,27,93,3.93,BF,1686414331
187,zhigansk,66.7697,123.3711,12.96,80,100,1.4,RU,1686414331
188,fredericksburg,38.3032,-77.4605,29.23,36,0,3.6,US,1686414174
189,madison,34.7334,-86.5667,28.64,43,0,4.12,US,1686414175
190,huarmey,-10.0681,-78.1522,23.48,74,80,3.95,PE,1686414332
191,ribas do rio pardo,-20.4431,-53.7592,29.65,35,0,4.28,BR,1686414332
192,fallon,39.4735,-118.7774,21.62,55,75,3.6,US,1686414332
193,aripuana,-9.1667,-60.6333,33.68,40,54,1.47,BR,1686414332
194,vaini,-21.2,-175.2,19.09,88,20,2.06,TO,1686414332
195,doctor cecilio baez,-25.05,-56.3167,26.91,51,27,3.5,PY,1686414332
196,brae,60.3964,-1.353,14.59,66,96,7.32,GB,1686414332
197,broome,42.2506,-75.833,20.94,78,100,2.24,US,1686414332
198,kruisfontein,-34.0033,24.7314,13.82,78,3,2.62,ZA,1686414332
199,cidreira,-30.1811,-50.2056,24.25,54,59,2.71,BR,1686414190
200,ayutuxtepeque,13.7456,-89.2064,30.03,74,20,2.06,SV,1686414332
201,talnakh,69.4865,88.3972,4.56,60,3,2.87,RU,1686414332
202,pevek,69.7008,170.3133,-0.99,85,26,1.86,RU,1686414333
203,bonthe,7.5264,-12.505,29.39,71,98,4.96,SL,1686414333
204,wajima,37.4,136.9,19.38,87,100,3.38,JP,1686414333
205,coihaique,-45.5752,-72.0662,3.97,70,20,1.54,CL,1686414333
206,kurilsk,45.2333,147.8833,8.88,95,100,1.67,RU,1686414333
207,kapit,2.0167,112.9333,23.28,90,44,0.22,MY,1686414333
208,mapimi,25.8167,-103.85,29.54,21,11,5.53,MX,1686414333
209,thompson,55.7435,-97.8558,19.09,34,40,1.54,CA,1686414333
210,mogadishu,2.0371,45.3438,26.19,85,54,8.65,SO,1686414333
211,karratha,-20.7377,116.8463,21.31,53,2,3.4,AU,1686414333
212,nabire,-3.3667,135.4833,24.69,91,94,1.34,ID,1686414334
213,colborne,44.0001,-77.8828,23.1,71,10,2.99,CA,1686414335
214,nhulunbuy,-12.2333,136.7667,23.34,83,49,3.09,AU,1686414335
215,verkhnetulomskiy,68.6073,31.7962,11.07,45,100,1.08,RU,1686414335
216,lebu,-37.6167,-73.65,10.64,63,55,5.58,CL,1686414335
217,wronki,52.7105,16.3804,26.3,33,16,6.3,PL,1686414335
218,kirensk,57.7853,108.1119,16.38,95,92,2.29,RU,1686414335
219,saquisili,-0.8333,-78.6667,14.18,80,75,1.54,EC,1686414335
220,san policarpo,12.1791,125.5072,26.67,86,100,2.84,PH,1686414336
221,tiksi,71.6872,128.8694,3.27,73,20,4.22,RU,1686414336
222,hermanus,-34.4187,19.2345,12.11,77,60,1.18,ZA,1686414336
223,saint george,37.1041,-113.5841,26.35,28,0,1.54,US,1686414184
224,naze,28.3667,129.4833,24.51,88,100,2.94,JP,1686414336
225,pangnirtung,66.1451,-65.7125,3.0,87,75,5.66,CA,1686414336
226,la ronge,55.1001,-105.2842,20.14,49,20,3.6,CA,1686414336
227,itacoatiara,-3.1431,-58.4442,32.9,50,5,2.61,BR,1686414336
228,finschhafen,-6.6024,147.8681,25.68,83,37,3.34,PG,1686414336
229,copiapo,-27.3667,-70.3333,13.83,41,0,2.55,CL,1686414336
230,holme,56.1138,10.1725,21.76,51,8,6.65,DK,1686414336
231,nanortalik,60.1432,-45.2371,5.61,72,83,4.66,GL,1686414336
232,tecate,32.5667,-116.6333,18.66,76,74,2.18,MX,1686414336
233,omboue,-1.5746,9.2618,25.39,79,87,3.79,GA,1686414336
234,esperance,-33.8667,121.9,14.53,62,10,6.9,AU,1686414337
235,alpena,45.0617,-83.4327,24.18,50,20,2.06,US,1686414337
236,kollam,8.8833,76.6,27.15,79,100,2.65,IN,1686414337
237,namibe,-15.1961,12.1522,19.91,76,50,3.8,AO,1686414337
238,lahuachaca,-17.3667,-67.6667,12.6,10,0,1.3,BO,1686414337
239,saint-joseph,-21.3667,55.6167,24.21,81,34,4.59,RE,1686414337
240,were ilu,10.6,39.4333,17.22,48,100,3.58,ET,1686414337
241,tahe,52.3333,124.7333,12.11,94,22,1.35,CN,1686414337
242,ballina,-28.8667,153.5667,10.43,86,57,1.77,AU,1686414337
243,seoul,37.5683,126.9778,19.78,86,100,3.09,KR,1686414337
244,aklavik,68.2191,-135.0107,2.0,93,100,3.09,CA,1686414337
245,zyryanka,65.75,150.85,17.31,44,100,3.33,RU,1686414337
246,vangaindrano,-23.35,47.6,21.97,92,0,3.19,MG,1686414338
247,bay roberts,47.5999,-53.2648,9.52,97,100,0.89,CA,1686414338
248,thousand oaks,34.1706,-118.8376,17.4,84,100,0.45,US,1686414208
249,lima,-12.0432,-77.0282,23.14,60,40,5.14,PE,1686414301
250,grants,35.1473,-107.8514,21.13,12,0,1.54,US,1686414338
251,correntina,-13.3433,-44.6367,32.51,31,30,1.91,BR,1686414338
252,lakes entrance,-37.8811,147.981,7.87,73,48,2.59,AU,1686414338
253,amot,59.5714,7.9877,17.65,46,88,2.16,NO,1686414338
254,mersing,2.4312,103.8405,24.95,100,40,2.06,MY,1686414338
255,kankakee,41.15,-87.8667,27.92,30,0,4.63,US,1686414338
256,dhrangadhra,22.9833,71.4667,32.82,48,68,8.16,IN,1686414338
257,beringovskiy,63.05,179.3167,3.16,89,100,3.21,RU,1686414338
258,elbistan,38.2059,37.1983,21.49,47,66,3.84,TR,1686414338
259,lovozero,68.005,35.0117,10.66,45,99,4.26,RU,1686414338
260,amarillo,35.222,-101.8313,24.01,69,0,2.57,US,1686414062
261,oistins,13.0667,-59.5333,31.05,70,40,7.2,BB,1686414339
262,cache creek,50.8101,-121.3246,19.4,85,98,2.4,CA,1686414339
263,xai-xai,-25.0519,33.6442,21.09,69,3,4.83,MZ,1686414339
264,altamira,-3.2033,-52.2064,32.05,66,75,3.09,BR,1686414339
265,chapais,49.7834,-74.8492,18.88,75,100,2.36,CA,1686414339
266,klamath falls,42.2249,-121.7817,17.49,70,20,2.06,US,1686414066
267,yeppoon,-23.1333,150.7333,14.88,86,0,3.95,AU,1686414339
268,fairbanks,64.8378,-147.7164,16.16,66,0,2.57,US,1686414332
269,maniitsoq,65.4167,-52.9,4.36,71,96,11.44,GL,1686414339
270,thunder bay,48.4001,-89.3168,14.95,63,75,4.63,CA,1686414339
271,klaksvik,62.2266,-6.589,13.51,91,98,6.53,FO,1686414339
272,kutum,14.2,24.6667,24.45,62,100,3.55,SD,1686414339
273,deputatskiy,69.3,139.9,10.9,57,100,2.48,RU,1686414339
274,qinzhou,21.95,108.6167,27.07,83,100,1.63,CN,1686414340
275,bell ville,-32.6259,-62.6887,14.89,26,100,4.25,AR,1686414340
276,bandarbeyla,9.4942,50.8122,26.84,79,26,13.67,SO,1686414340
277,camabatela,-8.1881,15.375,22.14,69,100,0.94,AO,1686414340
278,san lorenzo,-25.3333,-57.5333,27.55,61,75,4.12,PY,1686414340
279,sorland,67.667,12.6934,9.92,70,74,3.5,NO,1686414340
280,nanjangud,12.1197,76.6828,24.58,75,100,5.72,IN,1686414340
281,sechura,-5.5569,-80.8222,26.6,62,13,4.78,PE,1686414340
282,pedro carbo,-1.8333,-80.2333,28.14,78,88,1.05,EC,1686414340
283,hof,50.3167,11.9167,23.19,67,0,2.24,DE,1686414340
284,clyde river,70.4692,-68.5914,-0.87,93,100,11.83,CA,1686414340
285,cabo san lucas,22.8909,-109.9124,33.17,17,0,4.12,MX,1686414340
286,key largo,25.0865,-80.4473,30.0,63,1,2.88,US,1686414272
287,chiredzi,-21.05,31.6667,22.96,49,0,2.99,ZW,1686414341
288,half moon bay,37.4636,-122.4286,16.04,86,100,2.57,US,1686414328
289,wynyard,-41.0,145.7167,11.1,82,19,1.91,AU,1686414341
290,rapid valley,44.0625,-103.1463,16.75,92,100,5.14,US,1686414341
291,verkhoyansk,67.5447,133.385,13.41,72,99,3.02,RU,1686414341
292,benghazi,32.1167,20.0667,23.91,60,70,4.16,LY,1686414193
293,jinchang,38.4953,102.1739,24.11,17,100,2.77,CN,1686414341
294,okato,-39.2,173.8833,5.94,89,6,0.45,NZ,1686414341
295,launceston,-41.45,147.1667,10.45,92,26,5.66,AU,1686414341
296,changde,29.0464,111.6783,26.11,68,100,2.15,CN,1686414341
297,piterka,50.6803,47.4454,25.05,37,99,2.83,RU,1686414341
298,namatanai,-3.6667,152.4333,25.89,84,86,1.84,PG,1686414341
299,tambura,5.6,27.4667,25.65,71,70,2.08,SS,1686414341
300,kyzyl-suu,42.3414,78.0056,16.74,61,47,1.47,KG,1686414341
301,melville,40.7934,-73.4151,24.2,51,0,3.13,US,1686414342
302,petropavlovsk-kamchatskiy,53.0452,158.6483,11.33,54,40,4.0,RU,1686414342
303,kavaratti,10.5669,72.642,29.7,77,94,9.08,IN,1686414342
304,vera cruz,-12.6333,-41.0333,25.76,43,85,1.96,BR,1686414342
305,saint-pierre,-21.3393,55.4781,24.82,65,0,2.06,RE,1686414342
306,zlobin,45.2924,14.6541,20.09,75,40,2.06,HR,1686414342
307,pacific grove,36.6177,-121.9166,13.56,86,100,3.58,US,1686414342
308,black diamond,47.3087,-122.0032,11.98,91,100,0.89,US,1686414342
309,clearwater,27.9659,-82.8001,31.77,69,0,2.68,US,1686414019
310,sokolo,14.7328,-6.1219,43.19,10,54,4.88,ML,1686414342
311,helena,46.5927,-112.0361,21.21,75,75,1.54,US,1686414132
312,waingapu,-9.6567,120.2641,24.96,88,91,3.26,ID,1686414342
313,adrar,20.5022,-10.0711,40.95,9,0,6.02,MR,1686414342
314,akdepe,42.0551,59.3788,28.05,16,82,6.88,TM,1686414342
315,hambantota,6.1241,81.1185,27.36,81,97,8.72,LK,1686414343
316,bodden town,19.2833,-81.25,30.52,82,75,7.2,KY,1686414343
317,jawhar,2.7809,45.5005,25.72,75,47,7.79,SO,1686414343
318,ricardo palma,-11.9181,-76.6664,24.79,56,0,3.51,PE,1686414343
319,bengkulu,-3.8004,102.2655,24.48,92,66,1.82,ID,1686414343
320,singkang,2.1006,102.7994,25.17,91,25,1.43,MY,1686414343
321,plettenberg bay,-34.0527,23.3716,14.24,74,6,2.25,ZA,1686414343
322,kahului,20.8947,-156.47,24.91,79,20,9.26,US,1686414118
323,ribeira grande,38.5167,-28.7,21.22,60,20,5.14,PT,1686414343
324,umm lajj,25.0213,37.2685,31.8,50,0,4.0,SA,1686414343
325,terrak,65.087,12.3715,16.93,54,10,0.5,NO,1686414343
326,lasa,46.6166,10.7002,24.49,65,53,1.57,IT,1686414343
327,avarua,-21.2078,-159.775,22.03,100,75,1.54,CK,1686414343
328,carballo,43.213,-8.691,23.84,67,92,2.29,ES,1686414344
329,nkhotakota,-12.9274,34.2961,24.41,65,13,1.55,MW,1686414344
330,lompoc,34.6391,-120.4579,17.1,80,100,2.06,US,1686414344
331,port lincoln,-34.7333,135.8667,13.41,67,69,4.06,AU,1686414344
332,mayo,38.8876,-76.5119,28.4,42,0,3.6,US,1686414344
333,opportunity,47.6499,-117.2399,18.14,70,100,2.06,US,1686414344
334,ransang,8.9603,117.5828,26.63,84,100,3.73,PH,1686414344
335,amlame,7.4667,0.9,25.44,87,100,2.95,TG,1686414344
336,urubicha,-15.3833,-62.95,32.07,43,2,3.07,BO,1686414135
337,nola,40.922,14.5329,26.23,72,65,2.59,IT,1686414344
338,sao filipe,14.8961,-24.4956,25.97,75,2,4.02,CV,1686414344
339,port blair,11.6667,92.75,27.72,85,100,7.63,IN,1686414344
340,emerald,-23.5333,148.1667,10.75,57,0,3.42,AU,1686414344
341,torbay,47.6666,-52.7314,9.1,97,100,1.54,CA,1686414345
342,kavieng,-2.5744,150.7967,27.46,78,80,2.76,PG,1686414345
343,puerto madryn,-42.7692,-65.0385,7.6,47,6,12.12,AR,1686414050
344,nome,64.5011,-165.4064,8.42,93,0,0.0,US,1686414345
345,fukue,32.6881,128.8419,21.84,90,100,5.44,JP,1686414345
346,salalah,17.0151,54.0924,30.05,89,0,4.12,OM,1686414345
347,gazojak,41.1875,61.4036,31.01,14,98,6.39,TM,1686414345
348,nantucket,41.2835,-70.0995,21.08,79,0,1.54,US,1686414345
349,quzhou,28.9594,118.8686,24.09,88,86,1.62,CN,1686414345
350,santa fe,-31.6333,-60.7,17.79,63,60,4.92,AR,1686414113
351,savelugu,9.6244,-0.8253,33.88,45,74,1.55,GH,1686414345
352,belaya gora,68.5333,146.4167,17.48,51,100,0.6,RU,1686414345
353,partsa,54.3653,42.8617,15.22,55,89,3.35,RU,1686414345
354,champerico,14.3,-91.9167,31.3,72,100,0.64,GT,1686414345
355,coolum beach,-26.5333,153.1,15.68,91,48,2.36,AU,1686414345
356,zhuanghe,39.7008,122.9911,16.2,92,59,4.93,CN,1686414346
357,popondetta,-8.7537,148.2534,22.64,97,73,1.21,PG,1686414346
358,kurchum,48.5722,83.6542,21.91,71,100,6.56,KZ,1686414346
359,lusambo,-4.9667,23.45,28.59,51,69,0.26,CD,1686414346
360,dicabisagan,17.0818,122.4157,26.17,88,100,2.58,PH,1686414346
361,nanakuli,21.3906,-158.1547,23.97,76,20,3.6,US,1686414346
362,ganzhou,28.8184,115.4327,25.38,85,88,1.45,CN,1686414346
363,helong,42.5397,128.9972,12.83,99,100,0.92,CN,1686414346
364,college,64.8569,-147.8028,16.16,67,40,2.57,US,1686414346
365,noumea,-22.2763,166.4572,19.44,99,0,3.41,NC,1686414346
366,martinho campos,-19.3317,-45.2369,28.34,32,0,1.46,BR,1686414346
367,zapolyarnyy,69.4154,30.8136,11.6,43,100,0.46,RU,1686414078
368,nioro,13.35,-15.75,41.44,17,20,1.57,GM,1686414346
369,jining,35.405,116.5814,23.51,43,0,4.47,CN,1686414347
370,sangmelima,2.9333,11.9833,24.33,93,81,0.96,CM,1686414347
371,sokoni,-6.4333,39.55,26.45,76,8,6.4,TZ,1686414347
372,ahipara,-35.1667,173.1667,10.37,85,6,1.02,NZ,1686414347
373,nanfeng,23.7434,111.7959,25.97,90,62,0.86,CN,1686414347
374,togur,58.3631,82.8265,11.49,51,28,1.88,RU,1686414347
375,srednekolymsk,67.45,153.6833,16.25,29,23,2.91,RU,1686414347
376,jagraon,30.7833,75.4833,33.17,33,99,8.46,IN,1686414347
377,waddan,29.1614,16.139,37.72,17,2,1.77,LY,1686414347
378,ukiah,39.1502,-123.2078,22.98,82,20,0.0,US,1686414253
379,inverell,-29.7833,151.1167,5.87,76,0,2.03,AU,1686414347
380,olavarria,-36.8927,-60.3225,11.04,41,7,7.39,AR,1686414347
381,barao de melgaco,-16.1944,-55.9675,36.0,24,2,2.82,BR,1686414347
382,kamaishi,39.2667,141.8833,15.67,95,100,1.03,JP,1686414348
383,la romana,18.4273,-68.9728,32.2,70,20,2.57,DO,1686414348
384,tessalit,20.1986,1.0114,44.21,7,3,5.03,ML,1686414348
385,ratnagiri,16.9833,73.3,29.46,72,98,5.9,IN,1686414348
386,valle de allende,26.9333,-105.4,26.99,20,0,3.75,MX,1686414348
387,paamiut,61.994,-49.6678,3.38,79,95,2.97,GL,1686414348
388,turan,16.0678,108.2208,28.99,79,40,0.0,VN,1686414348
389,dabakala,8.3667,-4.4333,34.58,39,45,2.12,CI,1686414348
390,abilene,32.4487,-99.7331,33.99,42,0,5.14,US,1686414233
391,spearfish,44.4908,-103.8594,15.49,89,100,1.34,US,1686414348
392,hovd,48.0056,91.6419,23.8,26,26,0.79,MN,1686414348
393,lata,40.1629,-8.3327,23.93,63,100,3.13,PT,1686414348
394,beloha,-25.1667,45.05,19.73,89,0,2.3,MG,1686414348
395,pisco,-13.7,-76.2167,21.03,73,100,1.54,PE,1686414348
396,copparo,44.893,11.8249,25.0,63,99,1.88,IT,1686414348
397,tahta,26.7693,31.5021,35.32,17,0,6.79,EG,1686414349
398,pochutla,15.7432,-96.4661,33.79,52,100,2.48,MX,1686414349
399,havelock,34.8791,-76.9013,28.32,45,0,0.0,US,1686414349
400,yerbogachen,61.2767,108.0108,14.32,86,96,3.49,RU,1686414349
401,roebourne,-20.7833,117.1333,21.18,53,2,3.65,AU,1686414349
402,deoli,25.75,75.3833,36.9,23,0,4.94,IN,1686414349
403,mehran,33.1222,46.1646,37.84,15,44,4.0,IR,1686414349
404,pangai,-19.8,-174.35,23.5,62,6,4.5,TO,1686414349
405,derzhavinsk,51.1,66.3167,20.45,31,6,3.62,KZ,1686414349
406,port macquarie,-31.4333,152.9167,8.27,86,0,2.07,AU,1686414349
407,comodoro rivadavia,-45.8667,-67.5,7.92,36,20,7.2,AR,1686414349
408,ugoofaaru,5.6667,73.0,28.62,82,91,6.18,MV,1686414349
409,poum,-20.2333,164.0167,22.63,73,45,7.22,NC,1686414350
410,sisimiut,66.9395,-53.6735,8.38,48,100,18.21,GL,1686414350
411,dwarka,22.2394,68.9678,29.8,81,46,9.12,IN,1686414350
412,jiuquan,39.7432,98.5174,24.94,18,100,1.38,CN,1686414350
413,portland,45.5234,-122.6762,17.56,74,75,2.06,US,1686413474
414,takoradi,4.8845,-1.7554,26.23,80,92,6.22,GH,1686414350
415,ilulissat,69.2167,-51.1,6.01,93,75,2.06,GL,1686414350
416,vanavara,60.34,102.2797,12.25,81,100,1.32,RU,1686414350
417,zulueta,42.7451,-1.5793,24.79,47,0,3.09,ES,1686414350
418,rodez,44.5,2.5833,24.82,57,20,6.69,FR,1686414350
419,timbiqui,2.7717,-77.6654,29.57,67,69,1.3,CO,1686414350
420,cabinda,-5.55,12.2,24.96,82,84,4.86,AO,1686414350
421,hue,16.4667,107.6,30.06,66,40,1.54,VN,1686414304
422,roma,43.2128,-75.4557,20.94,71,20,3.09,US,1686414351
423,tonj,7.2737,28.6822,28.07,64,100,1.54,SS,1686414351
424,havoysund,70.9963,24.6622,7.13,65,98,2.57,NO,1686414351
425,nedjo,9.5046,35.5019,15.94,96,100,0.55,ET,1686414351
426,cap malheureux,-19.9842,57.6142,22.48,74,2,0.89,MU,1686414351
427,kokoda,-8.8785,147.7407,23.1,97,91,0.6,PG,1686414351
428,banda aceh,5.5577,95.3222,28.27,74,98,5.04,ID,1686414351
429,sebeta,8.9167,38.6167,16.02,60,99,2.0,ET,1686414351
430,jatibonico,21.9419,-79.17,28.93,73,82,5.81,CU,1686414351
431,statesboro,32.4488,-81.7832,28.74,32,0,0.0,US,1686414351
432,teknaf,20.8624,92.3058,27.29,83,96,3.89,BD,1686414351
433,daru,-9.0763,143.2092,25.35,86,39,5.91,PG,1686414351
434,gorin,51.1983,136.6669,13.81,88,19,2.01,RU,1686414351
435,nosy varika,-20.5833,48.5333,22.96,83,10,3.06,MG,1686414352
436,sola,-13.8833,167.55,25.59,74,100,11.06,VU,1686414352
437,vestmanna,62.1564,-7.1664,12.51,82,20,4.63,FO,1686414352
438,linhai,28.85,121.1167,26.07,64,92,0.59,CN,1686414352
439,lac,41.6356,19.7131,24.06,68,100,2.13,AL,1686414352
440,smithers,54.7804,-127.1743,16.18,51,75,3.09,CA,1686414352
441,turbat,26.0023,63.044,31.88,58,11,7.62,PK,1686414352
442,longyearbyen,78.2186,15.6401,3.91,87,75,1.54,SJ,1686414079
443,guymon,36.6828,-101.4816,22.0,60,0,5.14,US,1686414352
444,vavoua,7.3819,-6.4778,32.0,52,91,1.07,CI,1686414352
445,shenjiamen,29.9576,122.298,21.33,94,50,1.81,CN,1686414352
446,tabory,58.5198,64.5495,17.04,55,89,4.13,RU,1686414352
447,lang son,21.8333,106.7333,25.71,79,45,0.62,VN,1686414353
448,isangel,-19.55,169.2667,20.44,68,3,4.59,VU,1686414353
449,prachuap khiri khan,12.2167,99.75,28.16,81,100,3.62,TH,1686414353
450,findlay,41.0442,-83.6499,26.36,30,0,5.14,US,1686414353
451,chulym,55.0997,80.9572,16.02,54,92,1.92,RU,1686414353
452,mirnyy,62.5353,113.9611,19.02,72,99,1.79,RU,1686414353
453,ust-tsilma,65.441,52.1498,5.58,75,100,5.73,RU,1686414353
454,kirakira,-10.4544,161.9205,25.85,88,76,2.83,SB,1686414353
455,kenora,49.8167,-94.4337,15.54,51,40,4.12,CA,1686414353
456,alice springs,-23.7,133.8833,12.9,28,10,2.06,AU,1686414353
457,volosovo,59.4333,29.4833,14.74,38,14,3.54,RU,1686414353
458,shingu,33.7333,135.9833,18.73,95,100,1.46,JP,1686414353
459,yatou,37.15,122.3833,17.05,97,31,2.64,CN,1686414353
460,port augusta,-32.5,137.7667,10.68,66,0,2.18,AU,1686414354
461,viedma,-40.8135,-62.9967,9.93,39,49,10.66,AR,1686414354
462,sao miguel,-5.4667,-35.3667,30.43,65,37,6.97,BR,1686414354
463,leshukonskoye,64.8989,45.7622,5.46,79,94,4.85,RU,1686414354
464,petatlan,17.5167,-101.2667,29.89,46,56,2.22,MX,1686414354
465,hofn,64.2539,-15.2082,9.52,72,45,4.81,IS,1686414354
466,itaqui,-29.1253,-56.5531,23.52,66,92,4.51,BR,1686414354
467,tevaitoa,-16.7833,-151.5,26.45,67,100,6.94,PF,1686414354
468,quatre cocos,-20.2078,57.7625,23.06,68,15,6.27,MU,1686414354
469,oxelosund,58.6706,17.1015,17.21,29,0,4.63,SE,1686414354
470,khani,41.9563,42.9566,16.76,99,97,0.42,GE,1686414355
471,igarka,67.4667,86.5833,7.07,53,8,3.79,RU,1686414355
472,upata,8.0086,-62.3989,33.04,41,23,3.35,VE,1686414355
473,batemans bay,-35.7167,150.1833,10.61,75,6,1.7,AU,1686414355
474,yagodnoye,62.55,149.6667,12.06,60,93,1.55,RU,1686414355
475,akwatia,6.0402,-0.8088,25.23,94,100,2.5,GH,1686414355
476,warangal,18.0,79.5833,32.45,41,28,5.76,IN,1686414057
477,nishihara,26.1842,127.7558,26.81,89,20,2.57,JP,1686414355
478,cockburn town,21.4612,-71.1419,27.89,84,36,7.03,TC,1686414355
479,chara,56.9064,118.2631,16.34,48,23,1.04,RU,1686414355
480,cheyenne,41.14,-104.8203,18.86,54,0,4.02,US,1686414188
481,jacmel,18.2342,-72.5347,32.91,59,100,4.49,HT,1686414355
482,nusaybin,37.0778,41.2178,32.16,21,37,3.6,TR,1686414355
483,olafsvik,64.8945,-23.7142,7.06,72,47,7.77,IS,1686414355
484,gorshechnoye,51.5244,38.0365,14.71,95,100,8.54,RU,1686414356
485,bilopillya,51.1502,34.3129,16.76,90,100,5.05,UA,1686414356
486,colares,38.7992,-9.4469,25.25,75,20,6.26,PT,1686414356
487,marsa matruh,31.3525,27.2453,23.11,78,40,8.23,EG,1686414356
488,cortez,37.3489,-108.5859,22.8,26,0,1.54,US,1686414356
489,castellammare del golfo,38.0188,12.8858,25.12,77,100,2.59,IT,1686414356
490,palmer,42.1584,-72.3287,21.65,52,75,4.63,US,1686414356
491,ponta delgada,37.7333,-25.6667,20.4,73,20,5.66,PT,1686414356
492,dano,11.15,-3.0667,36.43,28,98,1.61,BF,1686414356
493,kloulklubed,7.0419,134.2556,28.63,76,99,2.92,PW,1686414356
494,maldonado,-34.6667,-54.9167,12.85,42,60,5.12,UY,1686414114
495,tomatlan,19.9333,-105.25,30.92,55,56,2.46,MX,1686414356
496,abu dhabi,24.4667,54.3667,33.06,62,0,3.09,AE,1686414125
497,cessnock,-32.8333,151.35,11.16,87,0,0.97,AU,1686414312
498,callaway,30.153,-85.5699,29.98,70,75,3.6,US,1686414357
499,mulege,26.8833,-111.9833,29.7,25,0,0.96,MX,1686414357
500,bato,13.3528,123.3677,26.39,89,94,3.85,PH,1686414357
501,vila do maio,15.1333,-23.2167,31.44,83,2,5.83,CV,1686414357
502,sobolevo,54.4299,31.8996,13.49,57,100,5.8,RU,1686414357
503,saldanha,-33.0117,17.9442,13.03,77,20,2.02,ZA,1686414357
504,talaya,61.3833,152.75,9.91,84,5,2.76,RU,1686414357
505,jishou,28.3167,109.7167,24.33,81,100,1.01,CN,1686414357
506,vaitape,-16.5167,-151.75,26.4,68,100,6.71,PF,1686414357
507,quelimane,-17.8786,36.8883,22.13,84,0,2.42,MZ,1686414357
508,bossangoa,6.4926,17.4552,29.86,60,73,0.21,CF,1686414357
509,batagay,67.6333,134.6333,10.86,83,90,1.88,RU,1686414357
510,ati,13.2154,18.3353,31.36,42,100,1.24,TD,1686414359
511,luba,3.4568,8.5547,25.94,83,79,5.08,GQ,1686414359
512,peniche,39.3558,-9.3811,23.38,83,95,4.37,PT,1686414359
513,presidencia roque saenz pena,-26.7852,-60.4388,29.4,49,18,2.78,AR,1686414359
514,lambarene,-0.7001,10.2406,27.92,70,65,1.93,GA,1686414359
515,tunceli,39.1083,39.5471,19.19,78,100,0.86,TR,1686414359
516,sao marcos,-28.9711,-51.0681,25.75,53,17,3.18,BR,1686414359
517,slavgorodskoye,53.0214,78.6435,17.34,51,17,2.9,RU,1686414359
518,hannoversch munden,51.4151,9.6505,28.27,36,0,5.66,DE,1686414359
519,inzhavino,52.3185,42.4937,16.76,81,90,6.98,RU,1686414359
520,labuhan,-6.8844,112.2051,25.34,83,28,3.19,ID,1686414360
521,northam,51.0333,-4.2167,19.25,89,99,1.51,GB,1686414360
522,duku,11.2361,4.9073,34.11,43,69,2.71,NG,1686414360
523,ixtapa,20.7,-105.2,31.79,54,0,0.89,MX,1686414360
524,zhoucheng,35.9122,116.3117,23.67,31,1,4.12,CN,1686414360
525,norman wells,65.282,-126.8329,13.02,82,75,7.2,CA,1686414302
526,tibacuy,4.3511,-72.4564,29.21,67,19,3.0,CO,1686414360
527,horsham,51.064,-0.3272,31.02,39,0,4.63,GB,1686414360
528,kapasan,-6.7773,111.3789,24.54,84,22,2.25,ID,1686414360
529,carutapera,-1.195,-46.02,30.07,65,51,4.41,BR,1686414360
530,vila franca do campo,37.7167,-25.4333,20.23,65,6,5.87,PT,1686414360
531,bijar,35.8668,47.6051,21.4,31,57,5.15,IR,1686414360
532,aneho,6.2333,1.6,27.11,93,100,6.59,TG,1686414361
533,mattru,7.6244,-11.8332,28.29,82,93,2.39,SL,1686414361
534,dukat,62.55,155.55,8.71,53,17,1.9,RU,1686414361
535,egvekinot,66.3167,-179.1667,0.8,75,100,2.57,RU,1686414361
536,joshimath,30.5667,79.5667,18.96,63,47,2.67,IN,1686414361
537,monroe,43.1501,-77.6831,24.7,58,75,4.12,US,1686414361
538,macusani,-14.0833,-70.4333,10.17,17,1,1.33,PE,1686414361
539,altinopolis,-21.0256,-47.3739,26.64,34,0,1.8,BR,1686414361
540,dewas,22.9667,76.0667,32.1,25,87,4.49,IN,1686414361
541,vanimo,-2.6741,141.3028,25.94,90,99,2.18,PG,1686414362
542,hami,42.8,93.45,31.81,11,1,1.09,CN,1686414362
543,dryden,49.7833,-92.7503,14.16,54,0,4.63,CA,1686414362
544,chino valley,34.7575,-112.4538,24.21,22,0,1.34,US,1686414362
545,blyznyuky,48.8578,36.5551,21.12,68,100,2.46,UA,1686414362
546,la ligua,-32.4524,-71.2311,15.53,63,31,2.46,CL,1686414260
547,ambilobe,-13.2,49.05,22.35,79,1,0.92,MG,1686414363
548,henties bay,-22.116,14.2845,15.72,78,0,4.15,NA,1686414363
549,ostersund,63.1792,14.6357,21.45,30,20,3.09,SE,1686414363
550,luganville,-15.5333,167.1667,24.17,79,100,4.99,VU,1686414363
551,the pas,53.8251,-101.2541,17.01,51,20,4.12,CA,1686414363
552,leonidovo,49.2833,142.8667,9.53,98,99,1.44,RU,1686414364
553,aracuai,-16.8497,-42.0703,32.36,36,34,0.25,BR,1686414364
554,forbes,-33.3833,148.0167,4.4,82,0,2.23,AU,1686414364
555,shubarkuduk,49.1447,56.4872,24.29,32,41,4.09,KZ,1686414364
556,zhangjiakou,40.81,114.8794,15.92,44,17,2.45,CN,1686414364
557,melipilla,-33.7,-71.2167,12.45,65,95,1.95,CL,1686414364
558,fallingbostel,52.8667,9.7,30.03,39,45,3.6,DE,1686414365
559,kiama,-34.6833,150.8667,10.7,75,0,0.45,AU,1686414248
560,sakakah,29.9697,40.2064,36.76,14,89,2.06,SA,1686414153
561,ardakan,32.31,54.0175,32.82,21,1,3.32,IR,1686414365
562,terrace bay,48.7834,-87.1,12.06,58,91,3.9,CA,1686414365
563,sirnak,37.5228,42.4594,24.04,41,76,2.76,TR,1686414365
564,honningsvag,70.9821,25.9704,6.86,81,100,2.57,NO,1686414365
565,bograd,54.2344,90.8328,15.19,94,94,3.01,RU,1686414366
566,boundiali,9.5217,-6.4869,35.54,33,60,2.15,CI,1686414366
567,rabat,33.9911,-6.8401,25.58,68,40,4.63,MA,1686414366
568,assiniboia,49.6334,-105.9845,16.9,48,0,5.14,CA,1686414078
569,smolenka,52.1352,113.4974,11.04,71,34,1.0,RU,1686414366
570,sibu,2.3,111.8167,26.17,94,20,0.0,MY,1686414366
571,baykit,61.67,96.37,11.42,61,98,3.71,RU,1686414366
572,jijiga,9.35,42.8,20.1,77,94,3.62,ET,1686414366
573,awbari,26.5921,12.7805,39.75,13,0,5.33,LY,1686414367
